id,brand,name,city,gu,address,gasoline,diesel,self,car_wash,charging_station,car_maintenance,convenience_store,24_hours,lat,lng
1,SK에너지,(주)보성 세곡주유소,서울,강남구,서울 강남구  헌릉로 731 (세곡동),1655,1553,1,1,0,0,0,0,37.46715650000000,127.11870810000000
2,현대오일뱅크,HD현대오일뱅크㈜직영 산성셀프주유소,서울,강남구,서울 강남구 헌릉로 730,1665,1565,1,1,0,0,0,0,37.46656750000000,127.11908030000000
3,GS칼텍스,방죽주유소,서울,강남구,서울 강남구 밤고개로 215 (율현동),1687,1589,1,1,0,0,0,0,37.47499260000000,127.10688660000000
4,SK에너지,오일프러스 셀프,서울,강남구,서울 강남구 남부순환로 2651 (도곡동),1688,1595,1,1,0,1,0,1,37.48583900000000,127.03967210000000
5,현대오일뱅크,HD현대오일뱅크㈜직영 도곡셀프주유소,서울,강남구,서울 강남구  남부순환로 2718 (도곡2동),1689,1589,1,1,0,1,0,0,37.48546230000000,127.04321810000000
6,SK에너지,자곡셀프주유소,서울,강남구,서울 강남구 밤고개로 120 (자곡동),1698,1597,1,1,0,0,0,0,37.48340020000000,127.10404580000000
7,현대오일뱅크,HD현대오일뱅크㈜직영 유진주유소,서울,강남구,서울 강남구 논현로 152 (도곡동),1699,1604,1,0,0,1,0,0,37.48743160000000,127.03999760000000
8,S-OIL,극동유화㈜ 개나리주유소,서울,강남구,서울 강남구 언주로 423 (역삼동),1708,1595,1,1,0,1,0,1,37.50007760000000,127.03854190000000
9,현대오일뱅크,삼성동주유소,서울,강남구,서울 강남구 테헤란로 619 (삼성동),1725,1625,1,1,0,0,0,0,37.50985760000000,127.06511010000000
10,SK에너지,(주)중앙에너비스 수서지점,서울,강남구,서울 강남구 광평로 202 (수서동),1727,1627,1,1,0,0,0,0,37.48410530000000,127.09504010000000
11,SK에너지,SK서광주유소,서울,강남구,서울 강남구 역삼로 142,1735,1615,1,1,0,1,0,1,37.49434240000000,127.03509150000000
12,S-OIL,(주)선진도곡주유소,서울,강남구,서울 강남구 도곡로 162 (도곡동),1739,1635,1,0,0,1,0,0,37.48782540000000,127.04668760000000
13,SK에너지,대교셀프주유소,서울,강남구,서울 강남구 강남대로 640 (신사동),1740,1680,0,1,0,0,0,1,37.52812920000000,127.03555370000000
14,SK에너지,SK에너지㈜ 진달래주유소,서울,강남구,서울 강남구 도곡로 208,1759,1665,1,0,0,0,0,0,37.49229500000000,127.04185980000000
15,GS칼텍스,지에스칼텍스㈜에너지플러스허브GS타워,서울,강남구,서울 강남구 논현로 516 (역삼동),1784,1744,0,1,0,1,0,1,37.50270829999999,127.03639560000000
16,SK에너지,대동석유 압구정주유소,서울,강남구,서울 강남구 언주로 842 (신사동),1797,1737,1,1,0,0,0,1,37.52534310000000,127.03382420000000
17,SK에너지,(유)동하석유 힐탑셀프주유소,서울,강남구,서울 강남구 논현로 640,1797,1727,1,1,0,0,0,1,37.51068870000000,127.03256890000000
18,GS칼텍스,세진에너지(주) 개포주유소,서울,강남구,서울 강남구 양재대로 339,1888,1728,1,1,0,0,0,0,37.47224090000000,127.05151340000000
19,GS칼텍스,지에스칼텍스㈜ 삼성로주유소,서울,강남구,서울 강남구 삼성로 563 (삼성동),1939,1899,1,1,0,0,0,1,37.51397499999999,127.05612740000000
20,현대오일뱅크,HD현대오일뱅크㈜직영 신사현대주유소,서울,강남구,서울 강남구 도산대로 163 (신사동),1948,1884,1,0,0,0,0,0,37.51952050000000,127.02631710000000
21,GS칼텍스,지에스칼텍스㈜ 은마주유소,서울,강남구,서울 강남구 영동대로 235,1954,1919,1,0,0,1,0,1,37.50007210000000,127.06728480000000
22,GS칼텍스,대성석유(주)동호주유소,서울,강남구,서울 강남구 봉은사로113길 51,2049,1942,1,0,0,0,0,0,37.51848600000000,127.06466550000000
23,GS칼텍스,지에스칼텍스(주)학여울주유소,서울,강남구,서울 강남구 남부순환로 3170 (일원2동),2089,2015,1,0,0,0,0,0,37.49467620000000,127.07783050000000
24,현대오일뱅크,HD현대오일뱅크㈜직영 한양주유소,서울,강남구,서울 강남구 압구정로 302 (신사동),2173,2096,1,0,0,0,0,0,37.52886810000000,127.03410460000000
25,S-OIL,명품주유소,서울,강남구,서울 강남구 도곡로 249 (역삼동),2178,2067,1,1,0,0,0,1,37.49427040000000,127.04550930000000
26,SK에너지,대청주유소,서울,강남구,서울 강남구 개포로 654 (일원동),2195,2086,1,0,0,0,0,0,37.49247370000001,127.08567900000000
27,GS칼텍스,(주)소모 쎈트럴주유소,서울,강남구,서울 강남구 삼성로 335,2195,2086,1,0,0,0,0,0,37.50142090000000,127.05914080000000
28,현대오일뱅크,㈜새서울석유 새서울주유소,서울,강남구,서울 강남구 압구정로 154,2198,1998,1,0,0,0,0,1,37.52583500000000,127.02654220000000
29,SK에너지,SK논현주유소,서울,강남구,서울 강남구 논현로 747 (논현동),2450,2295,1,0,0,1,0,1,37.51863680000000,127.02823800000000
30,현대오일뱅크,(주)제이제이네트웍스 제이제이주유소,서울,강남구,서울 강남구 언주로 716,2580,2430,1,0,0,0,0,1,37.51764720000000,127.03573490000000
31,GS칼텍스,(주)만정에너지 삼보주유소,서울,강남구,서울 강남구 봉은사로 433 (삼성동),2598,2560,1,0,0,0,0,0,37.51152070000000,127.04717160000000
32,현대오일뱅크,재건에너지 재정제2주유소 고속셀프지점,서울,강동구,서울특별시 강동구  천호대로 1246 (둔촌제2동),1649,1549,1,1,0,0,0,0,37.53651330000000,127.14935880000000
33,SK에너지,방아다리주유소,서울,강동구,서울 강동구 동남로 811 (명일동),1665,1575,1,1,0,0,0,0,37.54904450000000,127.15082290000000
34,GS칼텍스,(주)소모 신월주유소,서울,강동구,서울 강동구 양재대로 1323 (성내동),1686,1588,1,1,0,0,0,0,37.53049330000000,127.12899200000000
35,GS칼텍스,(주)삼표에너지 고덕주유소,서울,강동구,서울 강동구 고덕로 39 (암사동),1695,1595,1,1,0,0,1,0,37.55504900000000,127.12979290000000
36,GS칼텍스,대성석유(주)길동주유소,서울,강동구,서울 강동구 천호대로 1168,1696,1598,1,0,0,0,0,0,37.53342290000000,127.14117250000000
37,SK에너지,sk해뜨는주유소,서울,강동구,서울 강동구  상일로 132 (강일동),1699,1609,1,1,0,1,0,0,37.55450850000000,127.17241540000000
38,SK에너지,주)지유에너지직영 오렌지주유소,서울,강동구,서울 강동구 성안로 102 (성내동),1734,1634,1,0,0,1,0,0,37.53231400000000,127.13317810000000
39,S-OIL,(주)퍼스트오일 코알라주유소,서울,강동구,서울특별시 강동구  올림픽로 556 (성내동),1750,1650,1,1,0,0,0,0,37.52938080000000,127.12244080000000
40,GS칼텍스,(주)소모 성내주유소,서울,강동구,서울 강동구 올림픽로 578 (성내동),1768,1668,1,1,0,1,0,0,37.53137820000000,127.12732860000000
41,GS칼텍스,지에스칼텍스㈜ 동서울주유소,서울,강동구,서울 강동구 천호대로 1456 (상일동),1799,1729,1,1,0,0,0,0,37.55110280000000,127.16964010000000
42,현대오일뱅크,천호현대주유소,서울,강동구,서울 강동구 천중로 67 (천호동),1843,1743,1,0,0,1,0,0,37.54513310000000,127.12947300000000
43,S-OIL,광성주유소,서울,강동구,서울 강동구 올림픽로 673 (천호동),1968,1858,1,0,0,1,0,1,37.54161170000000,127.12417310000000
44,SK에너지,SK에너지(주) 매일주유소,서울,강북구,서울 강북구 삼양로 217 (미아동),1599,1514,1,1,0,0,1,0,37.62279770000000,127.01913560000000
45,SK에너지,북서울고속주유소,서울,강북구,서울 강북구 삼양로 410 (수유동),1599,1504,0,1,0,0,0,1,37.64014480000000,127.01720500000000
46,GS칼텍스,수유동주유소,서울,강북구,서울 강북구 도봉로 395 (수유동),1599,1504,1,1,0,0,0,1,37.64215560000000,127.02958620000000
47,S-OIL,씨앤에스유통㈜ 미아셀프주유소,서울,강북구,서울 강북구 도봉로 200 (미아동),1625,1525,1,1,0,0,0,0,37.62652920000000,127.02650020000000
48,S-OIL,덕릉로주유소,서울,강북구,서울 강북구 덕릉로 158 (번동),1625,1525,1,1,0,0,0,0,37.63497560000000,127.03131820000000
49,GS칼텍스,㈜지에스이앤알 미아주유소,서울,강북구,서울 강북구 도봉로 122 (미아동),1625,1525,1,1,0,0,0,0,37.61999640000000,127.02903040000000
50,현대오일뱅크,HD현대오일뱅크㈜직영 번동셀프주유소,서울,강북구,서울 강북구 한천로 963 (번동),1627,1537,1,1,0,1,0,1,37.63558720000000,127.03304930000000
51,GS칼텍스,대성석유(주)신광주유소,서울,강북구,서울 강북구 삼양로 484,1629,1539,1,0,0,1,0,0,37.64640880000000,127.01532850000000
52,SK에너지,에덴주유소,서울,강북구,서울 강북구 월계로 195 (번동),1645,1545,1,1,0,1,0,0,37.62169580000000,127.04553440000000
53,SK에너지,세원주유소,서울,강북구,서울 강북구 한천로 918 (번동),1648,1548,1,1,0,0,0,0,37.63425960000000,127.03773200000000
54,알뜰주유소,화곡역주유소,서울,강서구,서울 강서구 강서로 154 (화곡동),1582,1482,0,1,0,0,0,1,37.54071860000000,126.84153030000000
55,현대오일뱅크,이케이에너지(주) 강서주유소,서울,강서구,서울 강서구 화곡로 273 (화곡동),1582,1482,1,1,0,1,0,0,37.54916300000000,126.84699640000000
56,SK에너지,강서오곡셀프주유소,서울,강서구,서울 강서구 벌말로 254 (오곡동),1597,1493,1,1,0,0,0,1,37.55396220000000,126.76842750000000
57,알뜰주유소,뉴신정주유소,서울,강서구,서울 강서구 곰달래로 207 (화곡동),1619,1519,0,0,0,1,0,0,37.53157960000000,126.85605240000000
58,GS칼텍스,지에스칼텍스㈜ 경인고속주유소,서울,강서구,서울 강서구 국회대로 225 (화곡동),1619,1519,1,1,1,1,0,1,37.52962090000000,126.85979700000000
59,알뜰주유소,목화주유소,서울,강서구,서울 강서구 국회대로 251 (화곡동),1619,1519,1,1,0,0,0,0,37.53004030000000,126.86298250000000
60,현대오일뱅크,행촌에너지 공항주유소,서울,강서구,서울 강서구 개화동로 420 (개화동),1635,1537,1,1,0,1,1,1,37.57461100000000,126.80230290000000
61,SK에너지,KH에너지(주)직영 KH외발산주유소,서울,강서구,서울 강서구 방화대로 30,1635,1535,1,1,1,1,1,0,37.54342080000000,126.81686300000000
62,S-OIL,스카이주유소,서울,강서구,서울 강서구 개화동로 457 (방화동),1635,1537,1,1,0,0,1,1,37.57148580000000,126.80438060000000
63,현대오일뱅크,현대오일뱅크 등촌주유소,서울,강서구,서울 강서구 등촌로 189 (등촌동),1636,1546,1,0,0,0,0,0,37.54680800000000,126.86255450000000
64,GS칼텍스,강서열린주유소,서울,강서구,서울 강서구 등촌로 213 (등촌동),1638,1548,1,0,0,0,0,0,37.54871199999999,126.86306280000000
65,S-OIL,하이웨이주유소,서울,강서구,서울특별시 강서구 공항대로 432(화곡동),1648,1565,1,1,0,0,1,1,37.55466770000000,126.85480530000000
66,S-OIL,(주)한진 김포공항주유소,서울,강서구,서울 강서구 하늘길 259,1650,1560,1,1,0,0,0,0,37.55077630000000,126.81555490000000
67,GS칼텍스,대성석유(주) 관문주유소,서울,강서구,서울 강서구 공항대로 314,1658,1578,1,0,0,1,0,0,37.55772320000000,126.84252430000000
68,SK에너지,화곡현대주유소,서울,강서구,서울 강서구 강서로 151 (화곡동),1666,1586,1,1,0,0,0,1,37.54026140000000,126.84119830000000
69,현대오일뱅크,HD현대오일뱅크㈜직영 양화교셀프주유소,서울,강서구,서울 강서구 공항대로 653,1669,1584,1,1,0,0,0,0,37.54733680000000,126.87747640000000
70,GS칼텍스,대성석유(주)방화대성주유소,서울,강서구,서울 강서구 양천로 176,1676,1598,1,1,0,0,1,0,37.57288150000000,126.82348210000000
71,SK에너지,개화주유소,서울,강서구,서울 강서구 양천로 57,1677,1577,1,1,0,0,0,0,37.57350140000000,126.81009430000000
72,S-OIL,신화곡주유소,서울,강서구,서울 강서구 국회대로 71,1685,1595,1,1,0,0,0,0,37.52725790000000,126.84288960000000
73,SK에너지,세원제1주유소,서울,강서구,서울 강서구 양천로 311 (가양동),1688,1628,1,1,0,1,0,0,37.56788020000000,126.85107870000000
74,SK에너지,SK KH에너지 가양주유소,서울,강서구,서울 강서구 강서로 498 (가양동),1698,1618,1,0,0,1,1,1,37.56978230000000,126.84190220000000
75,GS칼텍스,대성주유소,서울,강서구,서울 강서구 강서로 472,1698,1618,1,0,0,1,0,0,37.56750280000000,126.84141860000000
76,현대오일뱅크,HD현대오일뱅크㈜직영 가양주유소,서울,강서구,서울 강서구  양천로 391 (가양동),1699,1629,1,0,0,0,0,0,37.56788020000000,126.85107870000000
77,GS칼텍스,박물관주유소,서울,강서구,서울 강서구 양천로53길 97 (가양동),1758,1678,1,0,0,1,1,0,37.56578490000000,126.84512160000000
78,SK에너지,코리나(주)청룡주유소,서울,강서구,서울 강서구 양천로 576,1768,1668,1,0,0,0,0,0,37.55673250000000,126.86276500000000
79,S-OIL,참솔에너지,서울,강서구,서울 강서구 벌말로 281 (오곡동),1865,1765,1,1,0,0,0,0,37.55625190000000,126.76844910000000
80,SK에너지,염창동주유소,서울,강서구,서울 강서구 양천로 720 (염창동),1935,1860,1,0,0,0,0,0,37.54911130000000,126.87579060000000
81,현대오일뱅크,HD현대오일뱅크㈜직영 문성골주유소,서울,관악구,서울 관악구 문성로 97 (신림동),1612,1512,1,0,0,0,0,0,37.47779410000000,126.91430220000000
82,알뜰주유소,(주)연우에너지 신관주유소,서울,관악구,서울 관악구 신림로 290 (신림동),1612,1512,1,1,0,0,0,0,37.48041300000000,126.93066650000000
83,SK에너지,(주)한유에너지행운셀프주유소,서울,관악구,서울 관악구 남부순환로 1883 (봉천동),1654,1565,1,1,0,0,0,0,37.47910830000000,126.95916970000000
84,SK에너지,대양석유(주)직영 보라매주유소,서울,관악구,서울 관악구  보라매로 26 (봉천동),1654,1554,1,1,0,0,0,0,37.49168740000000,126.92716030000000
85,GS칼텍스,서일석유(주)락성주유소,서울,관악구,서울 관악구 남부순환로 1920 (봉천동),1675,1575,1,1,0,1,0,1,37.47717919999999,126.96238830000000
86,SK에너지,SK에너지(주)직영 대공원주유소,서울,관악구,서울 관악구 과천대로 921 (남현동),1675,1575,1,0,0,1,1,0,37.47285560000000,126.98215150000000
87,SK에너지,SK에너지(주) 신봉천,서울,관악구,서울 관악구 남부순환로 1880 (봉천동),1679,1575,1,0,0,0,1,0,37.47875720000000,126.95834320000000
88,S-OIL,유림주유소,서울,관악구,서울 관악구 신림로 176 (신림동),1688,1588,1,0,0,1,0,1,37.47372470000000,126.93488000000000
89,S-OIL,관악시몬주유소,서울,관악구,서울특별시 관악구 남부순환로 1753 (봉천동),1735,1625,1,0,0,0,0,0,37.48235850000000,126.94510100000000
90,GS칼텍스,CJ대한통운㈜ 신림주유소,서울,관악구,서울 관악구 남부순환로 1515 (신림동),1818,1718,1,0,0,0,0,0,37.48294960000000,126.91895530000000
91,SK에너지,(주)장수주유소,서울,광진구,서울 광진구 동일로 266 (군자동),1617,1517,0,1,0,1,0,1,37.55497210000000,127.07151970000000
92,현대오일뱅크,HD현대오일뱅크㈜직영 능동주유소,서울,광진구,서울 광진구 천호대로 584 (능동),1619,1515,1,1,0,1,0,1,37.55555510000000,127.08245500000000
93,현대오일뱅크,(주)창원CW,서울,광진구,서울 광진구 광나루로 460 (화양동),1619,1515,1,1,0,0,0,0,37.54510420000000,127.08049690000000
94,현대오일뱅크,HD현대오일뱅크㈜직영 중원셀프주유소,서울,광진구,서울 광진구 동일로 398 (중곡동),1628,1529,1,1,0,0,0,0,37.56354400000001,127.08883040000000
95,현대오일뱅크,HD현대오일뱅크㈜직영 장호셀프주유소,서울,광진구,서울 광진구 자양로 37 (자양동),1628,1535,1,1,0,1,0,0,37.53127830000000,127.08583250000000
96,현대오일뱅크,HD현대오일뱅크㈜직영 중곡현대주유소,서울,광진구,서울 광진구 동일로 435 (중곡동),1628,1529,1,1,0,0,0,0,37.56094119999999,127.09574580000000
97,S-OIL,정해네트웍스(주)일진주유소,서울,광진구,서울 광진구 동일로 413 (중곡동),1667,1567,1,1,0,0,0,1,37.56354400000001,127.08883040000000
98,S-OIL,삼호주유소,서울,광진구,서울 광진구 천호대로 809 (광장동),1697,1627,1,1,0,0,0,1,37.54563560000000,127.10373410000000
99,SK에너지,유니스에너지 자양주유소,서울,광진구,서울 광진구 아차산로 298 (자양동),1748,1648,1,0,0,0,0,0,37.53169200000000,127.07451600000000
100,SK에너지,강평주유소 ㈜강평텔레콤,서울,광진구,서울 광진구 아차산로 616,1848,1747,1,0,0,0,0,0,37.54761190000000,127.10720510000000
101,S-OIL,씨앤에스유통(주) 구로드림주유소,서울,구로구,서울 구로구 경인로 41 (온수동),1590,1490,1,1,0,0,0,0,37.49032450000000,126.82560210000000
102,현대오일뱅크,개봉주유소,서울,구로구,서울 구로구 고척로 115 (개봉동),1592,1494,1,1,0,0,0,0,37.50193720000001,126.84681750000000
103,SK에너지,서서울고속주유소,서울,구로구,서울 구로구 경인로 150 (오류동),1592,1494,1,1,0,0,0,1,37.49167509999999,126.84284180000000
104,현대오일뱅크,㈜자연에너지 고척주유소,서울,구로구,서울 구로구 고척로 199 (고척동),1592,1494,1,1,0,0,0,0,37.50512730000000,126.85544060000000
105,현대오일뱅크,신성주유소,서울,구로구,서울 구로구 구로동로 187 (구로제2동),1615,1525,1,1,0,0,0,0,37.49515880000000,126.88238860000000
106,GS칼텍스,(주)한미석유구로그린주유소,서울,구로구,서울 구로구 구로중앙로 76 (구로동),1615,1495,1,1,0,1,0,0,37.49630640000000,126.88844440000000
107,S-OIL,극동유화(주) 항동주유소,서울,구로구,서울 구로구 서해안로 2154 (항동),1619,1509,1,1,0,0,0,0,37.48343910000000,126.82782790000000
108,SK에너지,SK구로주유소,서울,구로구,서울 구로구 구일로 94 (구로동),1634,1534,1,0,0,0,0,0,37.49360180000000,126.87218900000000
109,SK에너지,구인주유소,서울,구로구,서울 구로구 경인로 558 (구로동),1634,1534,1,0,0,1,1,0,37.50427790000000,126.88609440000000
110,현대오일뱅크,대원셀프주유소,서울,구로구,서울 구로구 개봉로 7,1635,1535,1,1,0,0,0,0,37.48616430000000,126.85615850000000
111,GS칼텍스,대성산업(주)디큐브주유소,서울,구로구,서울 구로구 경인로 650 (신도림동),1644,1534,0,0,0,0,0,1,37.50788550000000,126.88708740000000
112,현대오일뱅크,HD현대오일뱅크㈜직영 신구로주유소,서울,구로구,서울 구로구 가마산로 293 (구로동),1674,1583,1,0,0,0,0,0,37.49752230000000,126.89248410000000
113,현대오일뱅크,HD현대오일뱅크㈜직영 구로셀프주유소,서울,구로구,서울 구로구 시흥대로 531,1684,1564,1,1,0,1,0,1,37.48100270000000,126.89926620000000
114,SK에너지,SK에너지(주)직영 개봉동주유소,서울,구로구,서울 구로구 경인로 290 (개봉동),1699,1599,1,0,0,0,0,0,37.48638990000000,126.85676750000000
115,S-OIL,동아주유소,서울,구로구,서울 구로구 도림로 91 (구로동),1898,1698,0,0,0,0,1,0,37.49085090000000,126.89318780000000
116,SK에너지,(주)화동유업 화동주유소,서울,금천구,서울 금천구 시흥대로 484,1607,1507,1,1,0,0,0,0,37.47679740000000,126.89915960000000
117,S-OIL,구광주유소,서울,금천구,서울 금천구 서부샛길 674 (가산동),1625,1515,1,0,0,0,0,0,37.48203730000000,126.87517110000000
118,현대오일뱅크,HD현대오일뱅크㈜직영 금천현대셀프주유소,서울,금천구,서울 금천구 독산로 147 (시흥동),1644,1539,1,1,0,0,0,0,37.46050600000000,126.90451620000000
119,GS칼텍스,대득에너지(금천셀프주유소),서울,금천구,서울 금천구  시흥대로 81 (시흥동),1665,1565,1,1,0,0,1,1,37.44128050000000,126.90292460000000
120,SK에너지,SK에너지(주) 이가주유소,서울,금천구,서울 금천구 시흥대로 441,1675,1565,1,0,0,1,0,0,37.47302890000000,126.89793410000000
121,S-OIL,백산주유소,서울,금천구,서울특별시 금천구  시흥대로 174 (시흥동),1685,1595,1,1,0,1,0,0,37.44968560000000,126.90294960000000
122,GS칼텍스,지에스칼텍스(주)일신주유소,서울,금천구,서울 금천구 시흥대로 118,1685,1585,1,1,0,0,0,0,37.44447390000000,126.90426570000000
123,현대오일뱅크,현대오일뱅크㈜직영 금천제일주유소,서울,금천구,서울 금천구 남부순환로 1410 (독산동),1689,1569,1,0,0,0,0,0,37.48020770000000,126.90748050000000
124,GS칼텍스,이엠석유(주)배꽃나라주유소,서울,노원구,서울 노원구 화랑로 466 (공릉1동),1625,1525,1,1,0,1,0,0,37.62381370000000,127.07350970000000
125,현대오일뱅크,(주)정건에너지직영,서울,노원구,서울 노원구 노원로17길 29 (하계동),1625,1535,1,1,0,0,0,0,37.64218800000000,127.07039430000000
126,현대오일뱅크,화랑대주유소,서울,노원구,서울 노원구 화랑로 483,1635,1545,1,1,0,0,0,0,37.61957719999999,127.08063050000000
127,S-OIL,태릉솔밭주유소,서울,노원구,서울 노원구 노원로 49 (공릉동),1635,1545,1,1,0,0,0,1,37.62596520000000,127.08558970000000
128,GS칼텍스,월계주유소,서울,노원구,서울 노원구 월계로 252 (월계동),1645,1545,1,1,0,1,0,0,37.62477840000000,127.05076590000000
129,SK에너지,삼육주유소,서울,노원구,서울 노원구 화랑로 822 (공릉동),1645,1545,1,1,0,0,0,0,37.63863790000000,127.10905970000000
130,S-OIL,구도일주유소 불암,서울,노원구,서울 노원구 한글비석로 268 (중계동),1648,1553,1,1,0,0,0,0,37.65135130000000,127.07724010000000
131,S-OIL,한신주유소,서울,노원구,서울 노원구 동일로 1089 (공릉동),1650,1560,1,1,0,0,0,0,37.63047220000000,127.09099040000000
132,GS칼텍스,성북역주유소,서울,노원구,서울 노원구 광운로 95 (월계동),1658,1558,1,0,0,0,0,0,37.62577100000000,127.05993650000000
133,현대오일뱅크,상계동주유소,서울,노원구,서울 노원구 노원로26길 191 (상계동),1660,1575,0,0,0,1,0,0,37.65839380000000,127.07113750000000
134,SK에너지,SK에너지㈜직영 상계주유소,서울,노원구,서울 노원구 노해로 527 (상계동),1679,1579,1,0,0,0,0,0,37.65593910000000,127.06640630000000
135,S-OIL,신성주유소,서울,노원구,서울 노원구 월계로 328 (월계동),1688,1588,1,1,0,0,0,1,37.62877860000000,127.05733510000000
136,GS칼텍스,하계삼호주유소,서울,노원구,서울 노원구 공릉로 294 (하계동),1755,1695,0,0,0,1,0,0,37.63361710000000,127.07228550000000
137,현대오일뱅크,이케이에너지 주식회사,서울,도봉구,서울 도봉구 도봉로 941 (도봉동),1590,1495,1,1,0,0,0,0,37.68843050000000,127.04533740000000
138,현대오일뱅크,(주)자연에너지 햇살주유소,서울,도봉구,서울 도봉구 방학로 142 (방학동),1599,1504,1,1,0,0,0,0,37.66300150000000,127.03633250000000
139,GS칼텍스,지에스칼텍스㈜ 방학동주유소,서울,도봉구,서울 도봉구 방학로 186,1599,1504,1,1,0,0,0,0,37.66241080000000,127.03147580000000
140,GS칼텍스,지에스칼텍스㈜ 도봉주유소,서울,도봉구,서울 도봉구 도봉로 895 (도봉동),1599,1504,1,1,1,1,0,1,37.68439150000000,127.04565690000000
141,S-OIL,한이에너지(주) 쌍문주유소,서울,도봉구,서울 도봉구 도봉로 547 (쌍문동),1599,1504,1,1,0,1,0,1,37.65335570000000,127.02710030000000
142,S-OIL,(주)헨지스에너지 구도일주유소 도봉,서울,도봉구,서울 도봉구 도봉로 706 (방학동),1605,1505,1,1,0,1,0,0,37.66686869999999,127.04353030000000
143,S-OIL,극동유화(주) 대안주유소,서울,도봉구,서울 도봉구 마들로 574 (창동),1619,1509,1,1,0,1,0,0,37.66151550000000,127.04752470000000
144,현대오일뱅크,(주)쌍문셀프주유소,서울,도봉구,서울 도봉구 노해로 161 (쌍문동),1625,1525,1,1,0,1,0,0,37.64902400000000,127.02688000000000
145,SK에너지,삼미북부셀프주유소,서울,도봉구,서울 도봉구 도봉로 437 (쌍문동),1629,1534,1,1,0,0,0,1,37.64982930000000,127.02001970000000
146,현대오일뱅크,노원교주유소,서울,도봉구,서울 도봉구 마들로 776 (도봉동),1635,1535,1,1,0,0,0,0,37.67898300000000,127.04972240000000
147,SK에너지,동일석유(주) 창동주유소,서울,도봉구,서울 도봉구  도봉로 434 (창동),1637,1537,1,1,0,1,0,0,37.64460740000000,127.03274860000000
148,GS칼텍스,대성산업(주)신창주유소,서울,도봉구,서울 도봉구 덕릉로 267 (창동),1645,1545,1,1,0,0,0,1,37.64133540000000,127.04023600000000
149,S-OIL,오복주유소,서울,도봉구,서울 도봉구 방학로 43,1676,1627,1,1,0,0,0,1,37.66234100000000,127.04745420000000
150,현대오일뱅크,HD현대오일뱅크㈜직영 영신주유소,서울,도봉구,서울 도봉구 방학로 151,1727,1637,1,0,0,0,0,0,37.66237960000000,127.03544810000000
151,SK에너지,동서울고속주유소,서울,동대문구,서울 동대문구 한천로 414,1607,1507,0,1,0,0,0,1,37.59754190000000,127.06803310000000
152,SK에너지,풍한주유소,서울,동대문구,서울 동대문구 안암로 168,1615,1515,1,0,0,0,0,1,37.58925310000000,127.03601220000000
153,현대오일뱅크,재정제2주유소,서울,동대문구,서울 동대문구 사가정로 90 (전농동),1617,1517,1,1,0,0,0,0,37.57586980000000,127.05564930000000
154,현대오일뱅크,재정주유소,서울,동대문구,서울 동대문구 전농로 121 (전농동),1617,1517,1,1,0,0,0,0,37.57570380000000,127.05743940000000
155,GS칼텍스,대성산업㈜청량리주유소,서울,동대문구,서울 동대문구 왕산로 289 (청량리동),1635,1535,1,1,1,0,0,1,37.58141770000000,127.04507240000000
156,GS칼텍스,대성산업(주)동마장주유소,서울,동대문구,서울 동대문구 고산자로 405 (용두동),1635,1535,1,1,0,1,0,1,37.57569160000000,127.03775030000000
157,S-OIL,(주)경동주유소,서울,동대문구,서울 동대문구 이문로 191 (이문동),1635,1535,1,1,0,0,0,0,37.60359600000000,127.06178550000000
158,GS칼텍스,(주)파랑에너지,서울,동대문구,서울 동대문구 망우로 126,1645,1545,1,1,0,0,1,0,37.59123120000000,127.06705400000000
159,SK에너지,삼영주유소,서울,동대문구,서울 동대문구 답십리로 258 (장안동),1647,1547,1,0,0,0,0,0,37.57230640000000,127.06882240000000
160,S-OIL,홍능주유소,서울,동대문구,서울 동대문구 홍릉로 87 (청량리동),1667,1577,1,0,0,0,0,0,37.58793800000000,127.04266120000000
161,SK에너지,(주)안국에너지 삼원셀프주유소,서울,동대문구,서울 동대문구 망우로 90 (휘경동),1668,1568,1,1,0,0,0,0,37.59018270000000,127.06326630000000
162,현대오일뱅크,HD현대오일뱅크㈜직영 스피드주유소,서울,동대문구,서울 동대문구 천호대로 453 (장안동),1669,1559,1,0,0,0,0,1,37.56320590000000,127.06963160000000
163,현대오일뱅크,배봉로주유소,서울,동대문구,서울 동대문구 서울시립대로 108,1695,1595,1,1,0,0,0,0,37.58001510000000,127.05104960000000
164,SK에너지,삼미상사(주)장안킹셀프주유소,서울,동대문구,서울 동대문구  한천로 100 (장안동),1724,1624,1,1,0,0,0,0,37.57903520000000,127.06964520000000
165,현대오일뱅크,창원이엔지주유소,서울,동작구,서울 동작구 사당로 59 (상도동),1665,1585,1,1,0,0,0,0,37.49486740000000,126.96133870000000
166,현대오일뱅크,HD현대오일뱅크㈜직영 사당셀프주유소,서울,동작구,서울 동작구 동작대로 73 (사당동),1684,1619,1,1,0,0,0,1,37.48310820000000,126.98153970000000
167,GS칼텍스,지에스칼텍스㈜직영 남성주유소,서울,동작구,서울 동작구 동작대로 135 (사당동),1684,1619,0,1,0,0,0,1,37.48868150000000,126.98196610000000
168,현대오일뱅크,HD현대오일뱅크㈜직영 신대방셀프주유소,서울,동작구,서울 동작구 시흥대로 616 (신대방동),1689,1574,1,1,0,1,0,1,37.48712039999999,126.90564440000000
169,현대오일뱅크,HD현대오일뱅크㈜직영 흑석동셀프주유소,서울,동작구,서울 동작구 현충로 101 (흑석동),1689,1629,1,1,0,0,0,1,37.50801320000000,126.96526930000000
170,S-OIL,매일주유소,서울,동작구,서울 동작구 상도로 139 (상도동),1699,1659,1,1,0,0,0,0,37.50273480000000,126.93508380000000
171,현대오일뱅크,HD현대오일뱅크㈜직영 동작주유소,서울,동작구,서울 동작구 상도로 403 (상도동),1699,1634,1,0,0,0,0,0,37.49347390000000,126.95652210000000
172,현대오일뱅크,성산대교셀프주유소,서울,마포구,서울 마포구 성산로 144,1599,1529,1,1,0,1,0,0,37.56429850000000,126.90934740000000
173,현대오일뱅크,청원주유소,서울,마포구,서울 마포구 월드컵북로 113 (성산동),1599,1529,1,1,0,0,0,0,37.56280180000000,126.91508320000000
174,S-OIL,에쓰오일(주)마포주유소,서울,마포구,서울 마포구 마포대로 186 (공덕동),1655,1589,1,1,0,0,0,0,37.55063050000000,126.95565110000000
175,S-OIL,에쓰오일(주) 염리동주유소,서울,마포구,서울 마포구 백범로 126 (염리동),1659,1589,1,1,0,0,0,0,37.54628630000000,126.94481370000000
176,현대오일뱅크,에스에스오토셀프,서울,마포구,서울 마포구 서강로 76 (창전동),1679,1609,1,1,0,0,0,1,37.54983370000000,126.93257240000000
177,SK에너지,(주)만성상사 대흥주유소,서울,마포구,서울 마포구 대흥로 61 (대흥동),1689,1619,1,0,0,0,0,1,37.54595480000000,126.93989910000000
178,SK에너지,(주)안국에너지 망원동주유소,서울,마포구,서울 마포구 월드컵로 119 (망원동),1698,1598,1,0,0,0,0,0,37.55878200000000,126.90725260000000
179,SK에너지,SK에너지 양지주유소,서울,마포구,서울 마포구 마포대로 69 (도화동),1699,1659,0,0,0,0,1,1,37.53770020000000,126.94640300000000
180,SK에너지,SK에너지(주) 안국주유소,서울,마포구,서울 마포구 양화로 33,1729,1679,0,0,0,0,0,1,37.54930640000000,126.91262170000000
181,GS칼텍스,지에스칼텍스(주)홍제동주유소,서울,서대문구,서울 서대문구 통일로 372,1609,1509,1,1,0,0,0,0,37.58354950000000,126.95013180000000
182,현대오일뱅크,(주)가재울뉴타운주유소,서울,서대문구,서울 서대문구 모래내로 205,1623,1523,0,1,0,0,1,1,37.57326730000000,126.92243180000000
183,S-OIL,(주)미래아스팔트 신우주유소,서울,서대문구,서울 서대문구 가좌로 106(홍은동),1623,1543,1,1,0,1,0,0,37.58226560000000,126.92660010000000
184,S-OIL,(주)한화미 구도일주유소 두꺼비,서울,서대문구,서울 서대문구 성산로 312,1623,1543,1,1,0,1,0,0,37.56604510000000,126.92490550000000
185,현대오일뱅크,HD현대오일뱅크㈜직영 독립문주유소,서울,서대문구,서울 서대문구 통일로 384 (홍제동),1639,1559,1,0,0,0,1,0,37.59317619999999,126.94673130000000
186,현대오일뱅크,HD현대오일뱅크㈜직영 연세주유소,서울,서대문구,서울 서대문구 연희로 184,1644,1554,1,1,0,0,0,0,37.57346110000000,126.93591900000000
187,SK에너지,중앙에너비스 동교지점,서울,서대문구,서울 서대문구 연희로 12 (창천동),1645,1545,0,1,0,0,1,0,37.55870150000000,126.93421390000000
188,SK에너지,행촌제2주유소,서울,서대문구,서울 서대문구 성산로 490 (대신동),1659,1586,1,1,0,0,1,1,37.56421990000000,126.94430960000000
189,SK에너지,(주)안국에너지 삼보셀프주유소,서울,서대문구,서울 서대문구 연희로 78 (연희동),1668,1588,1,1,0,1,0,0,37.56500070000000,126.92993050000000
190,S-OIL,㈜우남에너지 문화사랑주유소,서울,서대문구,서울 서대문구 세검정로 87 (홍제동),1689,1629,1,1,0,0,0,0,37.59551500000000,126.94855110000000
191,SK에너지,삼미상사(주)서부주유소,서울,서대문구,서울 서대문구 성산로 255,1694,1624,1,1,0,1,1,0,37.56758950000000,126.91884730000000
192,SK에너지,광호주유소,서울,서대문구,서울 서대문구 연희로 266 (홍은동),1698,1618,1,0,0,0,0,0,37.58068540000000,126.93646340000000
193,SK에너지,연희주유소,서울,서대문구,서울 서대문구 연희로 129 (연희동 89-7번지),1698,1618,1,0,0,0,1,0,37.56928600000000,126.93253130000000
194,자가상표,만남의광장주유소,서울,서초구,서울 서초구 양재대로12길 73-71,1569,1469,0,1,1,0,1,1,37.46008370000000,127.04216860000000
195,GS칼텍스,에너지 플러스 허브 내곡,서울,서초구,서울 서초구 헌릉로 210,1625,1525,1,1,0,0,0,1,37.45531010000000,127.06292770000000
196,S-OIL,양재최고주유소,서울,서초구,서울 서초구 매헌로 72 (양재동),1644,1544,1,0,0,0,0,0,37.46715770000000,127.03471500000000
197,S-OIL,헌릉로주유소,서울,서초구,서울 서초구 헌릉로 177 (내곡동),1654,1564,1,1,0,0,0,0,37.45737050000000,127.06026320000000
198,S-OIL,극동유화(주) 전당앞주유소,서울,서초구,서울 서초구 남부순환로 2391 (서초동),1655,1565,1,1,1,1,0,0,37.48055430000000,127.01182090000000
199,S-OIL,서초하이웨이 주유소,서울,서초구,서울 서초구 양재대로2길 100-30,1657,1577,1,1,0,0,0,1,37.45729520000000,127.01621410000000
200,SK에너지,신반포주유소,서울,서초구,서울 서초구 사평대로 94 (반포동),1660,1598,1,1,0,0,0,1,37.49839500000000,126.99480730000000
201,SK에너지,(주)대농석유 남태령주유소,서울,서초구,서울 서초구 과천대로 838 (방배동),1665,1575,1,1,0,0,0,0,37.46689580000000,126.98783190000000
202,SK에너지,태봉셀프주유소,서울,서초구,서울 서초구 태봉로 117 (우면동),1665,1575,1,1,0,1,0,0,37.46827570000000,127.02817700000000
203,S-OIL,에쓰오일(주)직영 오토테크주유소,서울,서초구,서울특별시 서초구  효령로 356 (서초동),1665,1575,1,1,0,1,0,0,37.48648080000000,127.02285910000000
204,현대오일뱅크,HD현대오일뱅크㈜직영 팔레스주유소,서울,서초구,서울 서초구 사평대로 136 (반포동),1670,1609,0,0,0,0,0,1,37.50013939999999,126.99918330000000
205,GS칼텍스,에너지플러스허브 삼방주유소,서울,서초구,서울 서초구 사평대로 364 (서초동),1676,1639,1,1,0,0,0,1,37.50371230000000,127.02309580000000
206,GS칼텍스,반포그린주유소,서울,서초구,서울 서초구 서초중앙로 239 (반포동),1676,1639,1,1,0,0,0,0,37.50323250000000,127.01085590000000
207,GS칼텍스,지에스칼텍스(주)선천주유소,서울,서초구,서울 서초구 동작대로 206 (방배동),1684,1619,1,0,0,0,0,0,37.49494250000000,126.98320560000000
208,GS칼텍스,대성석유(주)연일주유소,서울,서초구,서울 서초구 남부순환로 2451,1686,1595,1,0,0,0,1,0,37.48258680000000,127.01851280000000
209,현대오일뱅크,HD현대오일뱅크㈜직영 사평로주유소,서울,서초구,서울 서초구 사평대로 350 (서초동),1686,1649,1,0,0,0,0,0,37.50330260000000,127.02152110000000
210,현대오일뱅크,HD현대오일뱅크㈜직영 방배현대주유소,서울,서초구,서울 서초구 동작대로 182 (방배동),1692,1620,1,0,0,1,0,0,37.49285470000000,126.98318290000000
211,GS칼텍스,대성산업(주)직영 터미널(고속)주유소,서울,서초구,서울 서초구 신반포로 222 (반포동),1695,1655,1,0,0,0,0,1,37.50676880000000,127.00882140000000
212,현대오일뱅크,HD현대오일뱅크㈜직영 서초제일주유소,서울,서초구,서울 서초구 사임당로 116 (서초동),1699,1651,1,0,0,0,0,0,37.49055730000000,127.02260520000000
213,현대오일뱅크,HD현대오일뱅크㈜직영 양재현대주유소,서울,서초구,서울 서초구 마방로 6,1699,1604,1,0,0,0,0,0,37.47357210000000,127.03970390000000
214,SK에너지,대신석유(주)대우주유소,서울,서초구,서울 서초구 양재대로 173 (양재동),1699,1597,1,1,0,0,1,1,37.46283090000000,127.03755760000000
215,SK에너지,양재주유소,서울,서초구,서울 서초구 바우뫼로 178,1699,1604,1,0,0,0,0,1,37.47808850000001,127.03959220000000
216,GS칼텍스,지에스칼텍스(주)남서울주유소,서울,서초구,서울 서초구 나루터로 83 (잠원동),1769,1729,1,0,0,0,1,1,37.51615670000000,127.01891450000000
217,SK에너지,방배동주유소,서울,서초구,서울 서초구 효령로 29 (방배동),1893,1796,1,0,0,0,0,0,37.47810260000000,126.98776810000000
218,SK에너지,대신석유㈜서원주유소,서울,서초구,서울 서초구 반포대로 142 (서초동),1998,1898,1,0,0,0,0,0,37.49280160000000,127.00758730000000
219,S-OIL,(주)선문에너지 중앙주유소,서울,서초구,서울특별시 서초구  바우뫼로 219 (양재1동),2168,1989,1,0,0,0,0,0,37.48155140000000,127.04223430000000
220,S-OIL,(주)서울에너지 직영,서울,성동구,서울 성동구 천호대로 324 (용답동),1573,1473,1,1,0,0,0,1,37.56426070000001,127.05568500000000
221,SK에너지,성동스카이셀프주유소,서울,성동구,서울 성동구 천호대로 392,1585,1485,1,1,0,0,0,1,37.56143030000000,127.06232720000000
222,현대오일뱅크,HD현대오일뱅크㈜직영 효진주유소,서울,성동구,서울 성동구 동일로 129,1615,1508,1,0,0,0,0,0,37.54407130000001,127.06471010000000
223,GS칼텍스,지에스칼텍스㈜ 도루코주유소,서울,성동구,서울 성동구 아차산로 180,1615,1508,1,1,0,1,0,1,37.54205250000000,127.06343010000000
224,S-OIL,아이콘주유소,서울,성동구,서울 성동구 고산자로 273 (도선동),1648,1538,1,1,0,0,0,1,37.56338320000000,127.03293880000000
225,현대오일뱅크,HD현대오일뱅크㈜직영 성동셀프주유소,서울,성동구,서울 성동구 마장로 311 (마장동),1655,1550,1,1,0,0,0,0,37.56701440000000,127.04372720000000
226,SK에너지,SK에너지(주) 군자동주유소,서울,성동구,서울 성동구 천호대로 446 (용답동),1659,1549,1,0,0,0,0,1,37.56055500000001,127.06834330000000
227,SK에너지,SK세원2주유소,서울,성동구,서울 성동구 광나루로 184 (성수동1가),1796,1710,1,0,0,1,0,0,37.55090950000000,127.05050020000000
228,SK에너지,SK에너지(주) 성수주유소,서울,성동구,서울 성동구 뚝섬로 352 (성수동1가),1798,1735,1,0,0,0,0,0,37.53996340000000,127.04993800000000
229,SK에너지,SK KH에너지 성수만세주유소,서울,성동구,서울 성동구 왕십리로 109,1798,1715,1,1,0,0,0,0,37.54753460000000,127.04425570000000
230,현대오일뱅크,동일주유소,서울,성동구,서울 성동구 광나루로 254 (성수동2가),1987,1889,1,0,0,0,0,0,37.54845400000000,127.05784680000000
231,SK에너지,청계로주유소,서울,성동구,서울 성동구 청계천로 454 (하왕십리동),2095,1995,1,0,0,0,0,0,37.57009730000000,127.02740440000000
232,현대오일뱅크,이케이에너지(주) 강산제2주유소,서울,성북구,서울 성북구 보국문로 52,1599,1509,1,1,0,0,0,0,37.60918500000000,127.01003140000000
233,GS칼텍스,(주)삼표에너지 정릉주유소,서울,성북구,서울 성북구 보국문로 35 (정릉동),1599,1509,1,1,0,1,0,0,37.60764260000000,127.00994870000000
234,GS칼텍스,이케이에너지㈜ 강산주유소,서울,성북구,서울 성북구 보문로 27 (보문동7가),1605,1515,1,1,0,0,0,1,37.57977890000000,127.02236270000000
235,SK에너지,중앙에너비스 종암지점,서울,성북구,서울 성북구 종암로 58,1615,1515,1,1,0,0,0,1,37.59560860000000,127.03604730000000
236,현대오일뱅크,장삼 쌍둥이 주유소,서울,성북구,서울 성북구 한천로 612 (장위동),1615,1525,1,1,0,0,0,0,37.61360430000000,127.06029930000000
237,GS칼텍스,지에스칼텍스(주) 종암주유소,서울,성북구,서울 성북구 종암로 145 (종암동),1615,1515,1,1,0,0,0,1,37.60276360000000,127.03206340000000
238,현대오일뱅크,(주)성북주유소,서울,성북구,서울 성북구 보문로 142,1625,1535,1,1,0,0,0,0,37.58757749999999,127.01844700000000
239,GS칼텍스,㈜명연에너지 효성주유소,서울,성북구,서울 성북구 화랑로 27,1625,1555,1,1,0,1,0,1,37.60312810000000,127.03517260000000
240,S-OIL,장위주유소,서울,성북구,서울 성북구 화랑로 110 (하월곡동),1625,1515,1,1,0,0,0,1,37.60464510000000,127.03939120000000
241,SK에너지,우리주유소,서울,성북구,서울 성북구 화랑로 292,1634,1535,1,1,0,1,0,1,37.61261180000000,127.06142480000000
242,현대오일뱅크,HD현대오일뱅크㈜직영 고대셀프주유소,서울,성북구,서울 성북구 종암로 12 (종암동),1645,1545,1,1,0,0,0,0,37.59165210000000,127.03667170000000
243,현대오일뱅크,HD현대오일뱅크㈜직영 북악셀프주유소,서울,성북구,서울 성북구 정릉로 218 (정릉동),1647,1545,1,1,0,0,0,0,37.60550010000000,127.00858180000000
244,S-OIL,(주)신용 구도일주유소화랑로,서울,성북구,서울 성북구 화랑로 174,1653,1543,1,1,0,1,0,0,37.60686780000000,127.05006410000000
245,현대오일뱅크,HD현대오일뱅크㈜직영 아리랑주유소,서울,성북구,서울 성북구 아리랑로 96 (정릉동),1680,1599,1,0,0,0,0,0,37.60048800000000,127.01426640000000
246,S-OIL,동일주유소,서울,성북구,서울특별시 성북구  보문로 85 (보문동5가),1685,1598,1,1,0,0,0,1,37.58270419999999,127.01919180000000
247,S-OIL,삼선주유소,서울,성북구,서울 성북구 창경궁로 324,1739,1565,1,1,0,0,0,0,37.58798880000000,127.00557400000000
248,SK에너지,한강에너지(주)퍼스트주유소,서울,송파구,서울 송파구 삼학사로 22 (석촌동),1633,1543,1,1,0,1,0,0,37.49931440000000,127.09706620000000
249,S-OIL,위례드림주유소,서울,송파구,서울시 송파구  위례중앙로 10,1643,1554,1,1,0,0,0,1,37.47542740000000,127.12847070000000
250,SK에너지,남성대주유소,서울,송파구,서울 송파구 송파대로 52 (장지동),1643,1554,1,1,0,1,0,1,37.47538410000000,127.12758550000000
251,GS칼텍스,삼화주유소,서울,송파구,서울 송파구 백제고분로 125,1643,1553,0,1,0,0,0,1,37.50658820000000,127.08100650000000
252,S-OIL,위례제일주유소 (주)버드에너지,서울,송파구,서울 송파구 위례서로 260,1643,1554,1,1,0,0,0,0,37.48781530000000,127.14269530000000
253,S-OIL,상아주유소,서울,송파구,서울 송파구 거마로 82,1643,1544,1,1,0,0,0,0,37.50020200000000,127.14787030000000
254,GS칼텍스,(주)삼표에너지 아시아주유소,서울,송파구,서울 송파구 도곡로 438 (잠실동),1643,1553,1,1,0,0,0,0,37.50459580000000,127.07736930000000
255,GS칼텍스,지에스칼텍스(주)가든파이브주유소,서울,송파구,서울 송파구 탄천동로 740,1653,1554,1,1,0,0,1,1,37.49729620000000,127.08924730000000
256,GS칼텍스,지에스칼텍스(주)스마트위례주유소,서울,송파구,서울 송파구 위례중앙로 43 (장지동),1653,1554,1,1,0,0,0,0,37.47541610000000,127.13215450000000
257,SK에너지,대성주유소,서울,송파구,서울 송파구 마천로 230 (마천동),1668,1578,1,0,0,0,0,0,37.50005400000000,127.14314730000000
258,SK에너지,(주)신화에너지 서울지점,서울,송파구,서울 송파구 가락로 47 (석촌동),1669,1568,1,1,0,1,0,1,37.49949020000000,127.10174190000000
259,현대오일뱅크,HD현대오일뱅크㈜직영 잠실셀프주유소,서울,송파구,서울 송파구 송파대로 397 (석촌동),1673,1573,0,1,0,0,0,1,37.50272770000000,127.10896700000000
260,현대오일뱅크,지에스이앤알 직영 송파제일주유소,서울,송파구,서울 송파구 삼학사로 50 (석촌동),1675,1549,1,1,0,1,0,1,37.50167130000000,127.09733360000000
261,GS칼텍스,(주)삼표에너지 훼미리주유소,서울,송파구,서울 송파구 중대로 58 (문정동),1677,1577,1,0,0,0,0,0,37.49123530000000,127.11535330000000
262,GS칼텍스,(주)삼표에너지 우리주유소,서울,송파구,서울 송파구 동남로 153,1677,1587,1,1,0,0,0,0,37.49238570000001,127.12735830000000
263,SK에너지,(주)유진주유소,서울,송파구,서울 송파구 동남로 325 (오금동),1682,1592,1,0,0,0,0,0,37.50457780000000,127.13843850000000
264,SK에너지,백제고분로주유소,서울,송파구,서울 송파구 오금로 143 (방이동),1683,1593,1,1,0,1,1,1,37.51223260000000,127.11687660000000
265,SK에너지,방이주유소,서울,송파구,서울 송파구 위례성대로12길 38 (방이동),1683,1593,1,0,0,1,0,0,37.51067440000000,127.12082230000000
266,S-OIL,(주)잠실에너지,서울,송파구,서울 송파구 송파대로 442 (송파동),1683,1593,1,1,0,1,0,1,37.50510720000000,127.11354690000000
267,SK에너지,완불주유소,서울,송파구,서울 송파구 송파대로 3 (장지동),1686,1608,1,1,0,0,0,1,37.47110970000000,127.12617080000000
268,현대오일뱅크,제트라인DM주유소,서울,송파구,서울 송파구 중대로 183 (가락동),1692,1595,0,0,0,1,0,0,37.49850470000000,127.12543100000000
269,GS칼텍스,송파주유소,서울,송파구,서울 송파구 송이로 28 (송파동),1695,1595,0,1,0,1,0,0,37.50884940000000,127.10640090000000
270,현대오일뱅크,(유)호림플러스홀딩스 남성주유소,서울,송파구,서울 송파구 백제고분로 474 (방이동),1697,1597,1,0,0,0,0,0,37.51259170000000,127.11397090000000
271,현대오일뱅크,(주)정직한주유소,서울,송파구,서울 송파구 오금로 455 (거여동),1697,1607,1,1,0,0,0,0,37.48972790000000,127.14499120000000
272,GS칼텍스,대성석유(주)석촌주유소,서울,송파구,서울 송파구 백제고분로 289,1697,1597,0,0,0,1,0,0,37.50282420000000,127.09857250000000
273,현대오일뱅크,HD현대오일뱅크㈜직영 올림픽셀프주유소,서울,송파구,서울 송파구 위례성대로 188 (오금동),1718,1628,1,1,0,1,0,1,37.50982500000000,127.13160700000000
274,SK에너지,대신석유(주)진양주유소,서울,송파구,서울 송파구 올림픽로 499 (풍납동),1898,1798,1,0,0,0,0,0,37.53366830000000,127.12061780000000
275,GS칼텍스,플라트(주)서호주유소,서울,양천구,서울 양천구 남부순환로 317,1582,1482,1,1,0,1,0,0,37.53866090000000,126.82683670000000
276,S-OIL,현대주유소,서울,양천구,서울 양천구 남부순환로 372 (신월동),1582,1482,1,1,0,0,0,0,37.53387270000000,126.82926250000000
277,SK에너지,가로공원주유소,서울,양천구,서울 양천구 가로공원로 165 (신월동),1582,1482,1,0,0,0,0,1,37.53701570000000,126.83428520000000
278,현대오일뱅크,형산석유(주)원주유소,서울,양천구,서울 양천구 남부순환로 408,1605,1503,1,0,0,1,0,0,37.53113889999999,126.83098180000000
279,SK에너지,개나리Self주유소,서울,양천구,서울 양천구 남부순환로 442 (신월동),1605,1503,1,1,0,1,0,0,37.52828250000000,126.83294760000000
280,알뜰주유소,양천구주유소,서울,양천구,서울 양천구 국회대로 275 (목동),1619,1519,1,1,0,1,0,1,37.53031490000000,126.86551680000000
281,현대오일뱅크,현대오일뱅크(주)직영 양천셀프주유소,서울,양천구,서울 양천구 목동로 17,1634,1565,1,1,0,0,0,0,37.51066750000000,126.87103520000000
282,현대오일뱅크,HD현대오일뱅크㈜직영 남부순환셀프주유소,서울,양천구,서울 양천구 남부순환로 553 (신월동),1644,1549,1,1,0,0,1,1,37.51949210000000,126.83880270000000
283,SK에너지,SK에너지(주) 경인주유소,서울,양천구,서울 양천구 국회대로 170 (신정동),1649,1594,1,1,0,0,0,0,37.52815540000000,126.85382350000000
284,GS칼텍스,지에스이앤알 직영 서울주유소,서울,양천구,서울 양천구 신정로 236 (신정동),1655,1547,1,1,0,0,0,0,37.51056100000000,126.84769710000000
285,SK에너지,SK에너지(주) 신평,서울,양천구,서울 양천구 목동남로 62,1659,1584,1,0,0,1,0,0,37.50938420000000,126.86621700000000
286,현대오일뱅크,신정동주유소,서울,양천구,서울 양천구 안양천로 663 (신정동),1667,1567,1,1,0,0,1,0,37.50655370000000,126.87115420000000
287,SK에너지,목동주유소,서울,양천구,서울 양천구 목동중앙로 125 (목동),1667,1572,1,1,0,0,0,0,37.53961590000000,126.87457550000000
288,GS칼텍스,(주)삼표에너지 목동주유소,서울,양천구,서울 양천구 목동서로 129 (목동),1669,1574,1,1,0,0,0,0,37.53216510000000,126.87551880000000
289,현대오일뱅크,현대오일뱅크(주)직영 양천현대셀프주유소,서울,양천구,서울 양천구 안양천로 1179 (목동),1669,1574,1,1,1,1,1,1,37.54597780000000,126.88135410000000
290,GS칼텍스,지에스칼텍스㈜ 건지주유소,서울,양천구,서울 양천구 안양천로 1171 (목동),1669,1574,1,1,0,0,0,0,37.54532430000000,126.88211120000000
291,현대오일뱅크,(주)서부트럭터미날,서울,양천구,서울 양천구 신정로 167 (신정동),1689,1599,1,0,0,0,0,0,37.50948720000000,126.83924080000000
292,현대오일뱅크,현대오일뱅크(주)직영 신목동셀프주유소,서울,양천구,서울 양천구 목동동로10길 13,1699,1681,1,1,0,1,0,0,37.51957880000000,126.87107390000000
293,SK에너지,삼미상사(주)신월IC셀프주유소,서울,양천구,서울 양천구 중앙로 331 (신월동),1699,1599,0,1,0,1,0,0,37.52550160000000,126.84979560000000
294,SK에너지,신양주유소,서울,양천구,서울 양천구 지양로 67,1745,1643,1,0,0,0,0,0,37.52152460000000,126.83384250000000
295,현대오일뱅크,영등포제일셀프주유소,서울,영등포구,서울 영등포구 가마산로 379,1585,1485,1,1,0,1,0,0,37.50234760000000,126.89950310000000
296,SK에너지,남서울고속주유소,서울,영등포구,서울 영등포구 가마산로 367 (대림동),1585,1485,1,1,0,0,0,1,37.50160280000000,126.89886620000000
297,GS칼텍스,(주)대청에너지 대청주유소,서울,영등포구,서울 영등포구 가마산로 328 (대림동),1585,1495,1,1,0,1,0,1,37.49854720000000,126.89575900000000
298,S-OIL,씨앤에스유통(주) 한일주유소,서울,영등포구,서울 영등포구 도림로 486 (문래동3가),1594,1494,1,1,0,0,0,0,37.51726980000000,126.89571520000000
299,S-OIL,성락주유소,서울,영등포구,서울 영등포구 가마산로 414 (신길동),1595,1495,1,1,0,0,0,0,37.50382500000000,126.90286900000000
300,현대오일뱅크,(주)MS에너지,서울,영등포구,서울 영등포구 대림로 230,1615,1495,1,0,0,0,0,0,37.50133670000000,126.89743580000000
301,SK에너지,한경석유(주)경덕주유소,서울,영등포구,서울 영등포구 여의대방로23길 2 (신길동),1615,1495,1,1,0,0,0,1,37.51769680000000,126.91699740000000
302,GS칼텍스,지에스칼텍스㈜ 신길주유소,서울,영등포구,서울 영등포구 신길로 74 (신길동),1615,1515,1,1,0,0,0,1,37.49905170000000,126.90873280000000
303,현대오일뱅크,영등포현대셀프주유소,서울,영등포구,서울 영등포구 경인로 822 (영등포동),1615,1495,0,1,0,0,1,0,37.51533980000000,126.90449050000000
304,현대오일뱅크,(주)강서오일,서울,영등포구,서울 영등포구 도신로 151,1615,1495,0,1,0,0,0,1,37.51002190000000,126.90823800000000
305,SK에너지,행촌주유소,서울,영등포구,서울 영등포구 도신로 130 (신길동),1615,1495,1,1,0,0,1,1,37.50861610000000,126.90623650000000
306,GS칼텍스,㈜지에스이앤알 모드니주유소,서울,영등포구,서울 영등포구 경인로 789,1647,1545,1,0,0,0,0,0,37.51464550000000,126.90075960000000
307,GS칼텍스,(주)지에스이앤알 보라주유소,서울,영등포구,서울 영등포구 영등포로 399 (신길동),1657,1555,1,0,0,0,0,0,37.51353590000000,126.92273570000000
308,현대오일뱅크,매봉주유소,서울,영등포구,서울 영등포구 도신로 248 (신길동),1657,1555,1,1,0,1,0,0,37.51308849999999,126.91833450000000
309,현대오일뱅크,국회대로주유소,서울,영등포구,서울 영등포구 국회대로 746 (여의도동),1668,1597,1,1,0,0,0,0,37.52799359999999,126.91604100000000
310,SK에너지,SK에너지(주) 신길동주유소,서울,영등포구,서울 영등포구 영등포로 348 (신길동),1669,1575,1,0,0,0,0,0,37.51532150000000,126.91701120000000
311,SK에너지,SK에너지(주) 양평주유소,서울,영등포구,서울 영등포구 선유로 195 (양평동3가),1674,1619,1,1,0,0,0,1,37.52903560000000,126.89104760000000
312,GS칼텍스,(주)한미석유 제2한강주유소,서울,영등포구,서울 영등포구 선유로 260 (양평동4가),1674,1619,1,1,0,0,0,0,37.53753520000000,126.89701040000000
313,SK에너지,SK에너지(주) 기린주유소,서울,영등포구,서울 영등포구 선유로 270,1674,1619,1,1,0,0,1,1,37.53604370000000,126.89926800000000
314,S-OIL,선유도주유소,서울,영등포구,서울 영등포구 양평로 141 (양평동5가),1684,1629,1,1,0,0,0,0,37.53936630000000,126.89264490000000
315,SK에너지,버드나룻길주유소,서울,영등포구,서울 영등포구 버드나루로 111 (당산동),2065,1965,1,0,0,0,0,0,37.52801770000000,126.90787080000000
316,SK에너지,SK KH에너지 여의도주유소,서울,영등포구,서울 영등포구 국회대로 794 (여의도동),2195,2189,1,0,0,0,0,0,37.53079440000000,126.92039010000000
317,GS칼텍스,SJ오일(주) 여의도주유소,서울,영등포구,서울 영등포구 은행로 64,2295,2395,1,0,1,0,1,1,37.53037990000001,126.92557820000000
318,현대오일뱅크,HD현대오일뱅크㈜직영 한남동주유소,서울,용산구,서울 용산구 한남대로 204 (한남동),1798,1698,1,0,0,1,0,0,37.54596950000000,127.00287490000000
319,GS칼텍스,(주)영원 풍기주유소,서울,용산구,서울 용산구 원효로 178 (원효로2가),2020,1936,0,0,0,0,1,0,37.53561710000000,126.96270020000000
320,SK에너지,동자동주유소,서울,용산구,서울 용산구 한강대로104길 6 (동자동),2140,1992,1,0,0,0,0,0,37.55279360000000,126.97479680000000
321,현대오일뱅크,HD현대오일뱅크㈜직영 갈월동주유소,서울,용산구,서울특별시 용산구  한강대로 322 (남영동),2140,1992,1,0,0,1,0,0,37.54703750000000,126.97223570000000
322,현대오일뱅크,HD현대오일뱅크(주)직영 소월길주유소,서울,용산구,서울 용산구 소월로 66 (후암동),2144,1991,1,0,0,0,0,0,37.55058450000000,126.97699580000000
323,현대오일뱅크,HD현대오일뱅크㈜직영 강변현대주유소,서울,용산구,서울 용산구 원효로 9 (청암동),2144,2061,1,0,0,1,0,0,37.53449570000001,126.94666340000000
324,SK에너지,(주)신태성주유소,서울,용산구,서울 용산구 원효로 147 (원효로3가),2152,1994,1,0,0,0,0,0,37.53372680000000,126.95612840000000
325,SK에너지,(주)남경주유소,서울,용산구,서울 용산구 녹사평대로11길 24,2179,2048,1,0,0,1,0,1,37.52263300000000,126.99312660000000
326,SK에너지,에너비스,서울,용산구,서울 용산구 한남대로 82 (한남동),2267,2167,1,0,0,0,0,0,37.53604120000000,127.00612760000000
327,SK에너지,한석주유소,서울,용산구,서울 용산구 이촌로 164,2318,2170,1,0,0,0,0,1,37.52139010000000,126.96555700000000
328,GS칼텍스,서계주유소,서울,용산구,서울 용산구  청파로 367 (청파동),2712,2729,1,0,0,0,0,0,37.55232860000000,126.96894620000000
329,현대오일뱅크,(주)디오티디 은평유니콘주유소,서울,은평구,서울 은평구 통일로 1151 (진관동),1579,1479,1,0,0,0,0,0,37.64322640000000,126.92000740000000
330,SK에너지,타이거주유소,서울,은평구,서울 은평구 수색로 188 (증산동),1594,1514,1,1,0,0,0,0,37.58514780000000,126.90415210000000
331,GS칼텍스,지에스칼텍스(주)수색뉴타운주유소,서울,은평구,서울 은평구 수색로 350 (수색동),1599,1514,1,1,0,0,0,0,37.58717080000000,126.88753930000000
332,GS칼텍스,지에스칼텍스㈜ 신사제일주유소,서울,은평구,서울 은평구 증산로 423 (신사동),1599,1549,1,1,0,0,0,1,37.59561300000000,126.90720330000000
333,현대오일뱅크,불광주유소,서울,은평구,서울 은평구 연서로 314 (불광동),1608,1528,1,1,0,0,0,0,37.62039730000000,126.92376840000000
334,GS칼텍스,지에스칼텍스㈜ 서부주유소,서울,은평구,서울 은평구 응암로 210 (응암동),1614,1564,1,1,0,1,0,0,37.59079180000000,126.91780760000000
335,현대오일뱅크,(주)명연에너지 수색훼미리주유소,서울,은평구,서울 은평구 수색로 236 (수색동),1615,1515,1,1,0,0,0,0,37.58109370000000,126.89770680000000
336,GS칼텍스,대성산업㈜ 대성주유소,서울,은평구,서울 은평구 통일로 642,1635,1545,1,1,0,0,0,1,37.60406510000000,126.93525580000000
337,GS칼텍스,성원이앤에스(주)은평지점,서울,은평구,서울 은평구 통일로 968 (진관동),1647,1557,1,1,0,0,0,0,37.62923200000000,126.91970400000000
338,SK에너지,은평뉴타운주유소,서울,은평구,서울 은평구 통일로 924 (불광동),1647,1557,1,1,0,1,0,0,37.62529770000000,126.92040310000000
339,SK에너지,박석고개주유소,서울,은평구,서울 은평구 통일로 945 (갈현동),1647,1557,1,1,0,0,0,1,37.62154100000000,126.91357800000000
340,자가상표,코끼리주유소,서울,은평구,서울 은평구 서오릉로 41 (녹번동),1698,1618,1,0,0,0,0,0,37.60327380000000,126.92941930000000
341,현대오일뱅크,㈜지에스이앤알 평창주유소,서울,종로구,서울 종로구 평창문화로 135 (평창동),1759,1699,1,1,0,0,0,0,37.60973520000000,126.97451300000000
342,SK에너지,자하문주유소,서울,종로구,서울 종로구 자하문로 248 (부암동),1769,1689,1,1,0,0,0,0,37.59274800000000,126.96640180000000
343,S-OIL,안풍주유소,서울,종로구,서울 종로구 자하문로 303,1769,1689,1,0,0,0,0,0,37.59920640000000,126.95914450000000
344,S-OIL,구도일주유소특종,서울,종로구,서울 종로구 평창문화로 90 (평창동),1790,1690,1,0,0,0,0,0,37.60668980000000,126.97109880000000
345,SK에너지,SK북악주유소,서울,종로구,서울 종로구 평창문화로 137,2198,2098,1,0,0,0,0,0,37.60986360000000,126.97489820000000
346,SK에너지,약수주유소,서울,중구,서울 중구 다산로 173,1657,1556,1,1,0,1,0,1,37.55902580000000,127.01266140000000
347,알뜰주유소,세화주유소,서울,중구,서울 중구 왕십리로 403,1768,1668,1,0,0,1,0,1,37.56473090000000,127.02552750000000
348,S-OIL,장충드림주유소,서울,중구,서울 중구 동호로 296,1785,1685,1,1,0,0,0,0,37.56085030000000,127.00341820000000
349,SK에너지,장충주유소,서울,중구,서울 중구 장충단로 202 (장충동1가),2048,1999,1,0,0,0,0,1,37.56097630000000,127.00758090000000
350,SK에너지,신당동주유소,서울,중구,서울 중구 다산로 242 (신당동),2148,1998,1,0,0,0,0,1,37.56460220000000,127.01641000000000
351,GS칼텍스,필동주유소,서울,중구,서울 중구 퇴계로 196 (필동2가),2489,2349,0,0,0,0,0,1,37.55877340000000,126.99472090000000
352,SK에너지,서남주유소,서울,중구,서울 중구 통일로 30,2721,2581,1,0,0,0,0,1,37.55837490000000,126.97209390000000
353,GS칼텍스,대양주유소,서울,중랑구,서울 중랑구 봉우재로 105 (상봉동),1607,1507,1,1,0,0,0,0,37.59259210000000,127.08487880000000
354,GS칼텍스,대원주유소,서울,중랑구,서울 중랑구 동일로 600,1607,1507,1,1,0,0,0,0,37.58403330000000,127.08010820000000
355,SK에너지,면목SELF주유소,서울,중랑구,서울 중랑구 동일로 627 (면목동),1607,1507,1,1,0,1,0,0,37.58634980000000,127.07958850000000
356,S-OIL,구도일주유소 동천,서울,중랑구,서울 중랑구 동일로 654 (면목동),1607,1507,1,1,0,0,0,0,37.58907340000000,127.08024470000000
357,S-OIL,오천만주유소,서울,중랑구,서울 중랑구 동일로 547 (면목동),1607,1507,1,1,0,0,0,0,37.57912240000000,127.07933110000000
358,GS칼텍스,우림주유소,서울,중랑구,서울 중랑구 용마산로 487 (망우제3동),1607,1507,1,1,0,0,0,0,37.59233180000000,127.09910540000000
359,S-OIL,(주)태영 구도일주유소 한인,서울,중랑구,서울 중랑구 망우로 170 (상봉동),1645,1545,1,1,0,1,0,0,37.59246550000000,127.07190800000000
360,SK에너지,신내주유소,서울,중랑구,서울 중랑구 용마산로 705 (신내동),1652,1553,1,1,0,0,0,0,37.61712500000000,127.09589620000000
361,SK에너지,신일셀프주유소,서울,중랑구,서울 중랑구 상봉로 58 (망우동),1659,1568,1,1,0,1,0,1,37.59094190000000,127.09380660000000
362,SK에너지,용마로주유소,서울,중랑구,서울 중랑구 용마산로 309 (면목동),1678,1558,1,1,0,0,0,0,37.57987770000000,127.09218190000000
363,S-OIL,범아주유소,서울,중랑구,서울 중랑구 동일로 881 (묵동),1698,1598,1,0,0,1,0,0,37.60931110000000,127.07767250000000
